{"_id":{"$oid":"5de10ee76ecccb22c4714844"},"Preferences":[],"F_name":"nauman","L_name":"Sheikh","Contact_no":"030","City":"Rwp","Address":"alallalalalala","Stores":[],"__v":{"$numberInt":"0"},"Verfication":false}
{"_id":{"$oid":"5de10fe96ecccb22c4714845"},"Preferences":[],"F_name":"nauman","L_name":"Sheikh","Contact_no":"030","City":"Rwp","Address":"alallalalalala","Stores":[],"__v":{"$numberInt":"0"},"Verfication":false}
{"_id":{"$oid":"5de112524674c8126425ac08"},"Preferences":[],"F_name":"nauman","L_name":"Sheikh","Contact_no":"030","City":"Rwp","Address":"alallalalalala","Stores":[],"__v":{"$numberInt":"0"},"Verfication":false}
{"_id":{"$oid":"5de11a5e82e625344c417cc3"},"Preferences":[],"F_name":"ronaldo","L_name":"Sheikh","Contact_no":"09993","City":"Rwp","Address":"alallalalalala","Stores":[],"__v":{"$numberInt":"0"},"Verfication":false}
{"_id":{"$oid":"5de15af1d9fff34714a44353"},"Preferences":[],"F_name":"ronaldo","L_name":"Sheikh","Contact_no":"03335126123","City":"Rwp","Address":"alallalalalala","Stores":[],"__v":{"$numberInt":"0"},"Verfication":false}
{"_id":{"$oid":"5de1658e6f64c947c05ebc26"},"Preferences":[],"F_name":"ronaldo","L_name":"Sheikh","Contact_no":"0333512","City":"Rwp","Stores":[{"name":"Punjab"},{"_id":{"$oid":"5de225c561dedb0b088c42f3"},"name":"Punjab"},{"_id":{"$oid":"5de226480c35d807ec1cfc4e"},"name":"Punjab"},{"_id":{"$oid":"5de227714780682d3884237b"},"name":"Punjab"},{"_id":{"$oid":"5de227d96ccf921e24cbc56a"},"name":"Punjab"},{"_id":{"$oid":"5de22888f4c33c1720ddb73e"},"name":"ronaldo","location":"alallalalalala"},{"_id":{"$oid":"5de2291d75392027c4433d5f"},"name":"Save Mart","location":"Adyala Road"}],"__v":{"$numberInt":"0"},"Verfication":false}
{"_id":{"$oid":"5de21fd94a873f210cf7501d"},"Preferences":[],"L_name":"Sheikh","Contact_no":"0307","City":"Rwp","Stores":[],"__v":{"$numberInt":"0"},"Verfication":false}
{"_id":{"$oid":"5de22ba70cf8971640cdecf4"},"Preferences":[],"F_name":"Raja Namdeen","L_name":"Sheikh","Contact_no":"0307111111","City":"Rwp","Stores":[{"_id":{"$oid":"5de22bcb0cf8971640cdecf5"},"name":"Gelani","location":"Adyala Road"}],"__v":{"$numberInt":"0"},"Verfication":false}
{"_id":{"$oid":"5de22dac4a05f01e10a5c618"},"Preferences":[],"L_name":"Sheikh","Contact_no":"030711","City":"Rwp","Stores":[{"_id":{"$oid":"5de22dcf4a05f01e10a5c619"},"name":"hum mart","location":"Adyala Road"},{"_id":{"$oid":"5de23087464b8b1a54f497d9"},"name":"humy","location":"Pindi"}],"__v":{"$numberInt":"0"},"Verfication":false}
{"_id":{"$oid":"5de2303d464b8b1a54f497d8"},"Preferences":[],"L_name":"Sheikh","Contact_no":"030711","City":"Rwp","Stores":[],"__v":{"$numberInt":"0"},"Verfication":false}
{"_id":{"$oid":"5de259d34ba26219f8ab68db"},"Preferences":[],"L_name":"Sheikh","Contact_no":"032158458479","City":"Rwp","Stores":[],"__v":{"$numberInt":"0"},"Verfication":false}
{"_id":{"$oid":"5de25ac636edb4098077443f"},"Verfication":true,"Preferences":[],"L_name":"Sheikh","Contact_no":"032158458","City":"Rwp","Stores":[],"__v":{"$numberInt":"0"}}
{"_id":{"$oid":"5de3aae60c756e32b030c899"},"Password":"nauman123","Verfication":true,"Preferences":[],"L_name":"Sheikh","Contact_no":"03071177","City":"Rwp","Stores":[],"__v":{"$numberInt":"0"}}
